sitename,county,aqi,pollutant,status,so2,co,o3,o3_8hr,pm10,pm2.5,no2,nox,no,wind_speed,wind_direc,publishtime,co_8hr,pm2.5_avg,pm10_avg,so2_avg,longitude,latitude,siteid
基隆,基隆市,79,細懸浮微粒,普通,1.8,0.19,48.7,52.9,60,18,3.1,3.8,0.7,3.2,89,"2023/11/24 16:00:00",0.2,26.7,73,2,121.760056,25.129167,1
汐止,新北市,81,細懸浮微粒,普通,2.7,0.17,39.9,44.8,54,13,11.1,12.1,0.9,4.5,33,"2023/11/24 16:00:00",0.2,27.5,71,2,121.64081,25.06624,2
萬里,新北市,105,懸浮微粒,對敏感族群不健康,1,0.18,51.6,54.8,104,20,2.5,3.5,0.9,9.9,53,"2023/11/24 16:00:00",0.2,29.2,113,1,121.689881,25.179667,3
新店,新北市,84,細懸浮微粒,普通,0.5,0.23,43.1,48.2,43,17,7.7,9.1,1.3,2.5,106,"2023/11/24 16:00:00",0.3,28.7,66,0,121.537778,24.977222,4
土城,新北市,97,細懸浮微粒,普通,1.1,0.23,37.4,42.2,51,20,9.2,10.2,1,2.2,125,"2023/11/24 16:00:00",0.4,34.1,74,1,121.451861,24.982528,5
板橋,新北市,81,細懸浮微粒,普通,0.7,0.31,33.9,42.1,55,16,17.2,19.3,2,3.1,94,"2023/11/24 16:00:00",0.4,27.6,71,0,121.458667,25.012972,6
新莊,新北市,98,懸浮微粒,普通,0.6,0.19,41.9,45.8,85,15,8.4,9.6,1.2,6.9,59,"2023/11/24 16:00:00",0.3,29,98,0,121.4325,25.037972,7
菜寮,新北市,80,細懸浮微粒,普通,1,0.24,43.4,47.4,49,14,8,9.5,1.5,3.7,79,"2023/11/24 16:00:00",0.3,27.4,71,1,121.481028,25.06895,8
林口,新北市,79,細懸浮微粒,普通,0.9,0.19,42.7,46.5,53,17,9.1,10.9,1.7,4.4,64,"2023/11/24 16:00:00",0.3,26.7,71,0,121.36548982,25.07798949,9
淡水,新北市,86,細懸浮微粒,普通,1.9,0.18,47.9,51.5,56,17,3.1,3.7,0.6,,,"2023/11/24 16:00:00",0.2,29.7,71,2,121.449239,25.1645,10
士林,臺北市,87,細懸浮微粒,普通,0.7,0.18,43.6,48.6,63,16,9,10.6,1.5,3.6,44,"2023/11/24 16:00:00",0.2,30.1,76,1,121.51666356,25.10334003,11
中山,臺北市,85,細懸浮微粒,普通,0.6,0.3,36.3,39.3,63,20,14.7,18.9,4.1,2.5,105,"2023/11/24 16:00:00",0.4,29.2,77,0,121.526528,25.062361,12
萬華,臺北市,92,細懸浮微粒,普通,1,0.28,35.8,41.7,54,17,16.1,18.4,2.3,3.4,79,"2023/11/24 16:00:00",0.3,32.1,77,1,121.507972,25.046503,13
古亭,臺北市,88,細懸浮微粒,普通,1.8,0.18,38.1,42.9,56,21,11.5,12.7,1.2,2.5,48,"2023/11/24 16:00:00",0.3,30.7,75,1,121.529556,25.020608,14
松山,臺北市,94,細懸浮微粒,普通,1,0.21,36,41.7,58,20,12.8,15,2.2,2.2,55,"2023/11/24 16:00:00",0.3,32.9,74,1,121.578611,25.05,15
大同,臺北市,96,細懸浮微粒,普通,0.6,0.44,26.9,32.1,65,20,23.2,41.3,18,-,-,"2023/11/24 16:00:00",0.5,33.7,80,1,121.51342074,25.06331455,16
桃園,桃園市,88,細懸浮微粒,普通,0.8,0.28,39.2,44.7,56,18,12,13.8,1.8,3,51,"2023/11/24 16:00:00",0.4,30.5,74,1,121.30500531,24.9947107,17
大園,桃園市,99,懸浮微粒,普通,2.6,0.19,37.5,42.6,77,15,15.3,18.4,3.1,7.3,55,"2023/11/24 16:00:00",0.3,29.2,99,2,121.20251473,25.06100357,18
觀音,桃園市,107,懸浮微粒,對敏感族群不健康,1.1,0.17,44.7,50.5,91,20,5.8,6.9,1.1,7.8,102,"2023/11/24 16:00:00",0.2,36.2,119,1,121.08283092,25.03556747,19
平鎮,桃園市,81,細懸浮微粒,普通,1.1,0.27,40.9,46.4,53,15,9.2,12.2,3,4.7,73,"2023/11/24 16:00:00",0.4,27.5,74,1,121.203986,24.952786,20
龍潭,桃園市,84,細懸浮微粒,普通,1.4,0.2,43.8,51.1,49,12,5.5,6.3,0.8,8.5,63,"2023/11/24 16:00:00",0.3,29.1,68,1,121.21645772,24.86400048,21
湖口,新竹縣,92,細懸浮微粒,普通,1.3,0.23,44.6,52,61,20,6.5,8.6,2.1,8.6,57,"2023/11/24 16:00:00",0.3,32.3,80,1,121.03886894,24.90009696,22
竹東,新竹縣,84,細懸浮微粒,普通,0.4,0.17,47.4,57.3,39,16,3.4,4.7,1.3,7.4,45,"2023/11/24 16:00:00",0.3,28.8,56,0,121.08895493,24.74091408,23
新竹,新竹市,89,細懸浮微粒,普通,1.4,0.22,44.5,52.6,47,16,8.8,10.5,1.6,5.8,51,"2023/11/24 16:00:00",0.3,31.1,68,1,120.97236752,24.8056356,24
頭份,苗栗縣,82,懸浮微粒,普通,1.2,0.2,46.8,57.3,67,16,6.9,8.5,1.5,4.8,54,"2023/11/24 16:00:00",0.3,26.7,82,1,120.89869286,24.69690679,25
苗栗,苗栗縣,73,細懸浮微粒,普通,1.8,0.22,48,58.1,50,11,5.2,6.9,1.7,4.6,11,"2023/11/24 16:00:00",0.3,24.3,56,2,120.82011468,24.56499183,26
三義,苗栗縣,73,細懸浮微粒,普通,0.9,0.25,53.3,61.8,41,18,4.5,5.2,0.6,5.9,15,"2023/11/24 16:00:00",0.3,24.3,51,1,120.75956754,24.38248443,27
豐原,臺中市,77,細懸浮微粒,普通,2.2,0.28,59,58.2,53,25,4.7,5.4,0.7,1.5,20,"2023/11/24 16:00:00",0.3,26,48,1,120.74252414,24.25699731,28
沙鹿,臺中市,94,細懸浮微粒,普通,2.1,0.34,53.9,64.4,78,29,9,10.1,1,4.8,348,"2023/11/24 16:00:00",0.4,33.1,71,1,120.568794,24.225628,29
大里,臺中市,88,細懸浮微粒,普通,,0.35,59.1,55.6,66,30,,,,3.2,344,"2023/11/24 16:00:00",0.5,30.5,56,1,120.67844444,24.09961111,30
忠明,臺中市,78,細懸浮微粒,普通,1.4,0.32,52.7,54.6,65,26,12.1,13.7,1.5,2.4,349,"2023/11/24 16:00:00",0.4,26.5,56,1,120.641092,24.151958,31
西屯,臺中市,86,細懸浮微粒,普通,1.4,0.27,56.9,58.3,71,25,7.8,10,2.2,5.2,9,"2023/11/24 16:00:00",0.3,29.7,61,1,120.616917,24.162197,32
彰化,彰化縣,90,細懸浮微粒,普通,1.7,0.43,59.9,58.4,89,39,13,14.9,1.9,4.6,2,"2023/11/24 16:00:00",0.4,31.5,71,1,120.541519,24.066,33
線西,彰化縣,99,懸浮微粒,普通,2.2,0.36,42.5,50.8,100,29,10.6,12.3,1.7,6.8,29,"2023/11/24 16:00:00",0.4,31.8,99,2,120.469061,24.131672,34
二林,彰化縣,104,懸浮微粒,對敏感族群不健康,4.3,0.41,54.8,59.2,128,31,11.5,12.9,1.4,4.5,9,"2023/11/24 16:00:00",0.3,35.9,110,2,120.409653,23.925175,35
南投,南投縣,71,臭氧八小時,普通,1.1,0.38,71.4,61.5,76,28,12.2,14.1,1.8,2.8,344,"2023/11/24 16:00:00",0.3,23.4,45,0,120.685306,23.913,36
斗六,雲林縣,93,臭氧八小時,普通,2.2,0.4,79.5,68.4,98,39,10,11.7,1.6,2.8,341,"2023/11/24 16:00:00",0.3,30.1,60,1,120.544994,23.711853,37
崙背,雲林縣,121,細懸浮微粒,對敏感族群不健康,2.2,0.28,62,57.7,116,38,7.3,8.4,1,2.4,335,"2023/11/24 16:00:00",0.3,43.3,110,1,120.348742,23.757547,38
新港,嘉義縣,103,細懸浮微粒,對敏感族群不健康,1.8,0.32,75.4,66.2,140,39,7.2,8.1,0.9,3.7,326,"2023/11/24 16:00:00",0.3,36.2,86,2,120.345531,23.554839,39
朴子,嘉義縣,101,細懸浮微粒,對敏感族群不健康,2.5,0.31,72.3,62.4,127,36,7.2,7,0,2.8,351,"2023/11/24 16:00:00",0.3,35.6,78,2,120.2478,23.46538,40
臺西,雲林縣,87,細懸浮微粒,普通,1.6,0.25,62.2,59.1,87,24,5.3,5.5,0.2,7.1,26,"2023/11/24 16:00:00",0.3,30,84,1,120.19933333,23.702175,41
嘉義,嘉義市,97,臭氧八小時,普通,2.6,0.41,83.7,69.1,122,44,9.8,10.5,0.7,4,3,"2023/11/24 16:00:00",0.3,31.4,62,1,120.44125148,23.46477865,42
新營,臺南市,80,臭氧八小時,普通,2.6,0.38,82.9,64.8,126,38,10.5,11.7,1.1,3.1,3,"2023/11/24 16:00:00",0.3,26,62,2,120.31725,23.305633,43
善化,臺南市,87,臭氧八小時,普通,2.1,0.28,89.7,66.1,59,34,7.8,8.8,1,3,310,"2023/11/24 16:00:00",0.2,23.2,39,1,120.29740529,23.11337642,44
安南,臺南市,72,細懸浮微粒,普通,1.4,0.27,75.1,58.3,64,21,5.7,6.7,0.9,2.7,280,"2023/11/24 16:00:00",0.3,24.1,54,1,120.2175,23.048197,45
臺南,臺南市,70,細懸浮微粒,普通,1.2,0.3,70.9,53.3,42,20,9.1,9.7,0.5,0.8,188,"2023/11/24 16:00:00",0.5,23.3,36,1,120.22085,22.99123,46
美濃,高雄市,93,臭氧八小時,普通,1.9,0.22,75.1,68.7,36,17,5.7,6.4,0.6,2.1,273,"2023/11/24 16:00:00",0.2,21.2,35,1,120.530542,22.883583,47
橋頭,高雄市,68,細懸浮微粒,普通,1.8,0.24,64.3,51.6,53,25,15.4,17.6,2.1,3.4,275,"2023/11/24 16:00:00",0.2,22.5,40,1,120.305689,22.757506,48
仁武,高雄市,56,細懸浮微粒,普通,1.4,0.25,70.6,52.9,38,16,10.6,11.2,0.5,2.2,300,"2023/11/24 16:00:00",0.3,17.5,33,1,120.332631,22.689056,49
鳳山,高雄市,44,,良好,1.2,0.52,61.6,45.9,45,19,14.9,16.2,1.2,1.2,273,"2023/11/24 16:00:00",0.4,13.7,35,1,120.357422,22.628126,50
大寮,高雄市,58,細懸浮微粒,普通,1.8,0.22,58.1,46.3,44,16,16,17.5,1.5,2.1,291,"2023/11/24 16:00:00",0.3,18.5,43,2,120.425311,22.56413611,51
林園,高雄市,77,臭氧八小時,普通,1.2,0.22,74.6,63,42,17,4.9,5.8,0.8,3,304,"2023/11/24 16:00:00",0.2,16.6,,1,120.41175,22.4795,52
楠梓,高雄市,48,,良好,1.6,0.34,70.2,51.5,49,14,9.3,9.7,0.4,2.6,286,"2023/11/24 16:00:00",0.4,14.7,44,1,120.328289,22.733667,53
左營,高雄市,66,細懸浮微粒,普通,1.9,0.24,72.2,54.2,40,30,8.8,9.5,0.7,2.9,307,"2023/11/24 16:00:00",0.3,21.6,34,2,120.292917,22.674861,54
前金,高雄市,61,細懸浮微粒,普通,1.2,0.28,72.6,51.5,48,28,8,8.9,0.9,2.5,283,"2023/11/24 16:00:00",0.3,19.5,35,1,120.28676111,22.63390278,56
前鎮,高雄市,64,細懸浮微粒,普通,1.9,0.28,67.3,45.2,63,27,12.4,14.8,2.4,1.8,23,"2023/11/24 16:00:00",0.3,20.7,40,1,120.30833356,22.6044507,57
小港,高雄市,60,細懸浮微粒,普通,1.3,0.24,63.5,44,44,24,18.7,20.6,1.8,3.2,282,"2023/11/24 16:00:00",0.2,19,35,1,120.337736,22.565833,58
屏東,屏東縣,71,臭氧八小時,普通,1.8,0.25,66.1,61.1,41,16,11.1,11.9,0.8,3,269,"2023/11/24 16:00:00",0.3,23,49,2,120.488033,22.673081,59
潮州,屏東縣,87,臭氧八小時,普通,,,66.4,66.4,36,17,6.7,8,1.3,2.6,240,"2023/11/24 16:00:00",0.2,20,39,0,120.561175,22.523108,60
恆春,屏東縣,87,臭氧八小時,普通,1.4,0.41,72.7,66.9,68,38,1.8,2.7,0.9,13.3,43,"2023/11/24 16:00:00",0.2,27.4,60,1,120.788928,21.958069,61
臺東,臺東縣,92,懸浮微粒,普通,0.9,0.41,64.3,60.6,81,34,6.1,7.3,1.2,4.2,21,"2023/11/24 16:00:00",0.3,29.2,92,0,121.15045,22.755358,62
花蓮,花蓮縣,55,細懸浮微粒,普通,0.7,0.27,52.6,56.9,32,12,4.7,5.5,0.7,4.2,67,"2023/11/24 16:00:00",0.4,17.2,37,0,121.599769,23.971306,63
陽明,臺北市,65,細懸浮微粒,普通,0.5,0.19,46.4,50.8,29,10,1.8,2.8,1,,,"2023/11/24 16:00:00",0.2,21.1,50,0,121.529583,25.182722,64
宜蘭,宜蘭縣,89,細懸浮微粒,普通,1,0.24,42.7,49.7,35,18,5.5,6.4,0.9,1.2,191,"2023/11/24 16:00:00",0.4,30.9,53,1,121.746394,24.747917,65
冬山,宜蘭縣,78,細懸浮微粒,普通,0.3,0.25,29.9,43.3,29,17,16.5,19.4,2.8,0.2,243,"2023/11/24 16:00:00",0.4,26.6,49,0,121.792928,24.632203,66
三重,新北市,92,細懸浮微粒,普通,1.1,0.86,19.9,20.7,59,21,31.4,82.7,51.3,-,-,"2023/11/24 16:00:00",0.9,32.2,70,1,121.493806,25.072611,67
中壢,桃園市,89,細懸浮微粒,普通,1.2,0.57,29.5,35.8,62,13,21.5,34.8,13.2,1.5,286,"2023/11/24 16:00:00",0.6,31.1,78,1,121.221667,24.953278,68
竹山,南投縣,92,細懸浮微粒,普通,1.8,0.36,85.5,65.5,85,47,8.7,9.2,0.5,2.5,300,"2023/11/24 16:00:00",0.2,32.2,51,1,120.677306,23.756389,69
永和,新北市,81,細懸浮微粒,普通,1.7,0.31,37.7,42.1,53,11,12.3,15.4,3,2,100,"2023/11/24 16:00:00",0.5,27.5,75,1,121.516306,25.017,70
復興,高雄市,51,細懸浮微粒,普通,1.6,,69.7,45.2,37,17,8.1,8.9,0.7,0.9,277,"2023/11/24 16:00:00",0.4,15.5,35,1,120.312017,22.608711,71
埔里,南投縣,58,臭氧八小時,普通,1.9,0.27,87.5,57.8,38,24,6.1,7.2,1.1,2.7,300,"2023/11/24 16:00:00",0.2,18.1,30,1,120.967903,23.968842,72
馬祖,連江縣,126,細懸浮微粒,對敏感族群不健康,0.7,0.23,52,52.7,71,19,4.3,4.8,0.5,3.5,325,"2023/11/24 16:00:00",0.3,45.2,101,1,119.93149378,26.15188416,75
金門,金門縣,135,細懸浮微粒,對敏感族群不健康,1.8,0.41,69,71,123,34,7.2,8.9,1.6,2.7,82,"2023/11/24 16:00:00",0.5,48.5,127,1,118.312256,24.432133,77
馬公,澎湖縣,95,細懸浮微粒,普通,0.8,0.21,57.1,67.9,53,24,2.6,3.2,0.6,8,22,"2023/11/24 16:00:00",0.4,33.5,62,0,119.566158,23.569031,78
關山,臺東縣,81,懸浮微粒,普通,0.3,0.39,58.4,55.7,68,27,5.8,6.4,0.6,3,43,"2023/11/24 16:00:00",0.3,20.9,81,0,121.161933,23.045083,80
麥寮,雲林縣,98,細懸浮微粒,普通,1.5,0.25,64.5,61.6,105,28,6.2,7,0.8,8,3,"2023/11/24 16:00:00",0.3,34.4,94,2,120.251825,23.753506,83
富貴角,新北市,96,細懸浮微粒,普通,0,0.1,54.3,57.4,61,21,1.5,1.6,0,11.7,55,"2023/11/24 16:00:00",0.1,33.8,80,0,121.53656894,25.29681695,84
大城,彰化縣,90,細懸浮微粒,普通,0.3,0.22,63.7,63.6,72,27,4.8,4.9,0.1,9.3,33,"2023/11/24 16:00:00",0.3,31.3,74,0,120.26964167,23.85493056,85
彰化(員林),彰化縣,93,細懸浮微粒,普通,1.7,0.47,64.1,58.4,85,34,10.2,11,0.8,1.4,350,"2023/11/24 16:00:00",0.4,32.7,68,2,120.56373,23.96117,201
高雄(湖內),高雄市,64,細懸浮微粒,普通,1.7,0.25,75.1,54.9,60,21,4.4,6.4,2,2.2,277,"2023/11/24 16:00:00",0.2,20.8,46,2,120.24535,22.87985556,202
臺南(麻豆),臺南市,87,細懸浮微粒,普通,1.9,0.37,68.6,54.1,110,41,10.2,11.4,1.1,2.2,350,"2023/11/24 16:00:00",0.3,30.1,73,1,120.24583056,23.17904722,203
屏東(琉球),屏東縣,70,細懸浮微粒,普通,1.3,0.23,69.8,55.4,36,25,5.2,5.9,0.6,2.2,279,"2023/11/24 16:00:00",0.2,23.2,39,2,120.37722,22.35222,204
臺中(大甲),臺中市,89,細懸浮微粒,普通,0.5,0.24,48.5,62.1,96,23,7,12.8,5.8,4.5,40,"2023/11/24 16:00:00",0.4,31,88,0,120.65575,24.391,310
新北(樹林),新北市,95,細懸浮微粒,普通,0,0.26,31,32.8,47,20,18.7,24.5,5.8,1.5,126,"2023/11/24 16:00:00",0.4,33.3,67,0,121.38352778,24.94902778,311
屏東(枋山),屏東縣,90,臭氧八小時,普通,0.7,0.16,61.8,67.2,41,18,1.9,1.8,0,1,309,"2023/11/24 16:00:00",0.2,18.7,41,0,120.651472,22.260899,313
